"key","datasetKey","decimalLongitude","decimalLatitude","year","month","day","country","catalogNumber","recordedBy","institutionCode","locality","collectionCode","stateProvince","DB","BBarcode","b1test","name"
2365719760,"85739778-f762-11e1-a439-00145eb45e9a",13.88,53.1367,2019,"4",29,"Germany","201925","H. Sipman & D. Heinrich","B","GERMANY, Brandenburg: Uckermark, NSG Fauler Ort, 1 km N of Pfingstberg. Alt. 60 m.","Lichen Herbarium Berlin",NA,"GBIF",NA,84,"Opegrapha vermicellifera"
1946699454,"828a3d8c-f762-11e1-a439-00145eb45e9a",18.94945,48.21,2018,"5",22,"Slovakia","54394-771",NA,"FR","bei Hontianske Tesáre, Schlucht ""Tesárska roklina""","Herbarium Senckenbergianum (FR) - Fungi",NA,"GBIF",NA,95,"Opegrapha vermicellifera"
1949714922,"828a3d8c-f762-11e1-a439-00145eb45e9a",20.82805,48.633333,2018,"5",26,"Slovakia","54651-771",NA,"FR","Schlucht von Zádiel","Herbarium Senckenbergianum (FR) - Fungi",NA,"GBIF",NA,61,"Opegrapha vermicellifera"
1851035976,"828a3d8c-f762-11e1-a439-00145eb45e9a",12.538333,53.6975,2017,"11",4,"Germany","50607-771",NA,"FR","Karstorf","Herbarium Senckenbergianum (FR) - Fungi",NA,"GBIF",NA,81,"Opegrapha vermicellifera"
1676061221,"828a3d8c-f762-11e1-a439-00145eb45e9a",6.94225,47.957867,2016,"8",16,"France","49085-771",NA,"FR","am Vorderblockloch bei Wildenstein","Herbarium Senckenbergianum (FR) - Fungi",NA,"GBIF",NA,69,"Opegrapha vermicellifera"
1836425465,"85739778-f762-11e1-a439-00145eb45e9a",14.2067,53.005,2016,"10",13,"Germany","195519","H. Sipman & D. Heinrich","B","DEUTSCHLAND, Brandenburg, Landkreis Uckermark: Nationalpark Unteres Odertal. Forest SW of Criewen, Densenberge. Alt. ca. 20 m.","Lichen Herbarium Berlin",NA,"GBIF",NA,87,"Opegrapha vermicellifera"
1233564707,"828a3d8c-f762-11e1-a439-00145eb45e9a",16.11455,51.020867,2014,"6",15,"Poland","41043",NA,"FR","bei Moisdorf, im ""Grund""","Herbarium Senckenbergianum (FR) - Fungi",NA,"GBIF",NA,72,"Opegrapha vermicellifera"
1052818554,"828a3d8c-f762-11e1-a439-00145eb45e9a",14.075833,50.97055,2013,"10",18,"Germany","38481",NA,"FR","Amselgrund, zwischen Schwedenlöchern & Amselfall","Herbarium Senckenbergianum (FR) - Fungi",NA,"GBIF",NA,76,"Opegrapha vermicellifera"
1052818555,"828a3d8c-f762-11e1-a439-00145eb45e9a",14.036467,50.97625,2013,"10",18,"Germany","38527",NA,"FR","Uttewalder Grund, hinterm Aufstieg nach Uttewalde, vor der Brücke in Richtung Schleifgrund","Herbarium Senckenbergianum (FR) - Fungi",NA,"GBIF",NA,80,"Opegrapha vermicellifera"
912722378,"828a3d8c-f762-11e1-a439-00145eb45e9a",14.320833,50.914717,2012,"10",11,"Germany","33939",NA,"FR","Elbsandsteingebirge, mittleres Kirnitzschtal, bei der Thorwalder Brücke","Herbarium Senckenbergianum (FR) - Fungi",NA,"GBIF",NA,74,"Opegrapha vermicellifera"
912722316,"828a3d8c-f762-11e1-a439-00145eb45e9a",23.685283,52.706667,2011,"4",24,"Poland","35778",NA,"FR","Gestellweg ""Zielony Tryb"" nördlich der Straße Hajnowka - Bia&#322;owie&#380;a","Herbarium Senckenbergianum (FR) - Fungi",NA,"GBIF",NA,69,"Opegrapha vermicellifera"
1929743802,"d415c253-4d61-4459-9d25-4015b9084fb0",7.2133,50.1686,2010,"1",30,"Germany","01167656","W. R. Buck","NY","Naturschutzgebiet Dortebachtal, along trail from parking area to waterfall, ca. 1 km E of village of Klotten along Hwy 49, along N shore of Mosel River","NY","Rheinland-Pfalz","GBIF",NA,88,"Opegrapha vermicellifera"
1212178117,"85739778-f762-11e1-a439-00145eb45e9a",14.0917,48.3033,2010,"5",14,"Austria","178336","Franz Berger","B","AUSTRIA, Oberösterreich (=Upper Austria), 5.1 km ESE of the centre of Eferding, 2 km NW of Alkoven, Eckhartsau, along the secondary branch of the brook Innbach. Alt. 260 m.","Lichen Herbarium Berlin",NA,"GBIF",NA,92,"Opegrapha vermicellifera"
1212175178,"85739778-f762-11e1-a439-00145eb45e9a",9.025,53.4183,2008,"4",4,"Germany","103343","H. Sipman","B","DEUTSCHLAND, Niedersachsen: Landkr. Landkreis Rotenburg (Wümme). Osterwede, Brillitermoor. MTB 2520/3B2. Elev. 5 m.","Lichen Herbarium Berlin",NA,"GBIF",NA,85,"Opegrapha vermicellifera"
1212178200,"85739778-f762-11e1-a439-00145eb45e9a",13.44,47.8517,2008,"5",4,"Austria","178337","Roman Türk","B","AUSTRIA, Oberösterreich (=Upper Austria), 6.8 km ESE of the centre of Mondsee, valley of the brook Wangauer Ache, between Oberwang and Loibichl. Alt. 560 m.","Lichen Herbarium Berlin",NA,"GBIF",NA,74,"Opegrapha vermicellifera"
1676061048,"828a3d8c-f762-11e1-a439-00145eb45e9a",7.285,50.1875,2006,"10",1,"Germany","215493",NA,"FR","[Cochem-Zell] Verbandsgemeinde Treis-Karden, Pommerbachtal W Karden, Bachaue entlang Pommerbach","Herbarium Senckenbergianum (FR) - Fungi",NA,"GBIF",NA,91,"Opegrapha vermicellifera"
127413274,"fb1ecd28-f09e-4747-8bde-0b3d7a6f78d1",23.7833,52.7,2004,"5",3,"Poland","82884","Kukwa, M.","BG","Bialowieza Primeval Forest, forest section no 450","L","Równina bielska","GBIF",NA,69,"Opegrapha vermicellifera"
912722293,"828a3d8c-f762-11e1-a439-00145eb45e9a",15.304167,51.03055,2004,"7",11,"Poland","15699",NA,"FR","beim Schloß Tzschocha","Herbarium Senckenbergianum (FR) - Fungi",NA,"GBIF",NA,73,"Opegrapha vermicellifera"
912722336,"828a3d8c-f762-11e1-a439-00145eb45e9a",15.304167,51.030283,2004,"7",11,"Poland","15707",NA,"FR","beim Schloß Tzschocha","Herbarium Senckenbergianum (FR) - Fungi",NA,"GBIF",NA,73,"Opegrapha vermicellifera"
NA,NA,13.640471,53.209189,2001,"24-Apr",NA,"GERMANY","60949","H. Sipman","BERLIN_DB","GERMANY, Brandenburg, Landkr. Uckermark. Forested island on S-side of Kuhzer See, N. of Mittenwalde. Alt. c. 75 m.",NA,NA,"BERLIN_DB","",83,"Opegrapha vermicellifera"
NA,NA,13.844849,53.157172,2001,"24-Apr",NA,"GERMANY","60975","H. Sipman","BERLIN_DB","GERMANY, Brandenburg, Landkr. Uckermark. Suckow, former estate. Alt. c. 50 m.",NA,NA,"BERLIN_DB","",87,"Opegrapha vermicellifera"
1212178143,"85739778-f762-11e1-a439-00145eb45e9a",13.4133,48.3383,2000,"11",19,"Austria","178338","Franz Berger","B","AUSTRIA, Oberösterreich (=Upper Austria), district Ried im Innkreis, 29 km ENE of Braunau am Inn, along the rivulet Antisen, near Hübing. Alt. 320 m.","Lichen Herbarium Berlin",NA,"GBIF",NA,88,"Opegrapha vermicellifera"
1987970710,"628abbe5-dc8d-41e9-a0c7-f05efe282649",9.3,47.58,1999,"9",7,"Switzerland","L29272","Trevor Goward, Christoph Scheidegger","ca.ubc","Romanshorn region near Amriswii","UBC-lichen","Thurgau","GBIF",NA,92,"Opegrapha vermicellifera"
NA,NA,13.621052,53.266548,1997,"23 Nov.",NA,"GERMANY","54859","H. Sipman","BERLIN_DB","GERMANY, Brandenburg: Uckermark, Boitzenburg: Tiergarten, around and E of medieval monastery ruins.",NA,NA,"BERLIN_DB","",82,"Opegrapha vermicellifera"
2237876495,"84d26682-f762-11e1-a439-00145eb45e9a",11.66465,54.77403,1993,"10",25,"Denmark","DMS-1014364","Steen N. Christensen",NA,"Krenkerup Haveskov",NA,NA,"GBIF",NA,82,"Opegrapha vermicellifera"
152940176,"89579e3e-f762-11e1-a439-00145eb45e9a",15.24513,46.599655,1992,"4",10,"Slovenia","F775251","Koch M., Mayrhofer H., Matzer M., Pusswald W.","ULBF-AGR",NA,"FloVegSI-FLO",NA,"GBIF",NA,85,"Opegrapha vermicellifera"
NA,NA,12.819813,47.67829,1989,"15. sept.",NA,"GERMANY","38638","H. Sipman","BERLIN_DB","GERMANY, BAYERN. Berchtesgaden. Unterjettenberg. Alt. 550 m. Near margin of old deciduous forest on mountain slope with pasturefields.",NA,NA,"BERLIN_DB","",72,"Opegrapha vermicellifera"
2237866856,"84d26682-f762-11e1-a439-00145eb45e9a",11.73717,54.87344,1984,"7",19,"Denmark","DMS-1004733","Mogens Skytte Christiansen",NA,"Færgemark",NA,NA,"GBIF",NA,82,"Opegrapha vermicellifera"
2237905589,"84d26682-f762-11e1-a439-00145eb45e9a",11.7,54.85,1984,"8",14,"Denmark","DMS-1039519","Mogens Skytte Christiansen",NA,"Storskov",NA,NA,"GBIF",NA,82,"Opegrapha vermicellifera"
2270754741,"98bceab6-3c3e-4163-945d-6ca10576ebf1",8.966667,48.05,1981,"7",24,"Germany","539061","T.H. Nash III","ASU","Liebfrauertal, near the Cloisters at Beuron on the Danube",NA,"Baden-Württemberg","GBIF",NA,80,"Opegrapha vermicellifera"
2270757097,"98bceab6-3c3e-4163-945d-6ca10576ebf1",9.216667,48.116667,1981,"7",24,"Germany","539028","T.H. Nash III","ASU","Hertenstein, 3 km N of Sigmaringen",NA,"Baden-Württemberg","GBIF",NA,81,"Opegrapha vermicellifera"
152940215,"89579e3e-f762-11e1-a439-00145eb45e9a",15.245201,45.799749,1979,"7",17,"Slovenia","F776041","Batič F.","ULBF-AGR",NA,"FloVegSI-FLO",NA,"GBIF",NA,109,"Opegrapha vermicellifera"
152940196,"89579e3e-f762-11e1-a439-00145eb45e9a",14.91192,45.699747,1978,"7",15,"Slovenia","F775582","Batič F.","ULBF-AGR",NA,"FloVegSI-FLO",NA,"GBIF",NA,98,"Opegrapha vermicellifera"
2237879106,"84d26682-f762-11e1-a439-00145eb45e9a",11.35874,54.78336,1977,"7",24,"Denmark","DMS-1014257","Ulrik Søchting",NA,"Kristianssæde Skov",NA,NA,"GBIF",NA,82,"Opegrapha vermicellifera"
2270737925,"98bceab6-3c3e-4163-945d-6ca10576ebf1",10.980931,47.859946,1977,"11",19,"Germany","510452","T. Feuerer, H. Hertel & E. Krach","ASU","Lkr. Weilheim, Alpenvorland, Paterzeller Eibenwald, südöstlich von Wessobrunn",NA,"Bavaria","GBIF",NA,76,"Opegrapha vermicellifera"
2237903141,"84d26682-f762-11e1-a439-00145eb45e9a",12.54132,54.97663,1976,"5",19,"Denmark","DMS-1037820","Mogens Skytte Christiansen",NA,"Møns Klint",NA,NA,"GBIF",NA,78,"Opegrapha vermicellifera"
2237907058,"84d26682-f762-11e1-a439-00145eb45e9a",12.550935,54.960172,1976,"5",18,"Denmark","DMS-1043259","Mogens Skytte Christiansen",NA,"Sandskredsfald, Møns Klint",NA,NA,"GBIF",NA,81,"Opegrapha vermicellifera"
2237910079,"84d26682-f762-11e1-a439-00145eb45e9a",9.750667,54.950635,1972,"2",12,"Denmark","DMS-1043440","Svanhildur Svane",NA,"Sandbjerg Gods",NA,NA,"GBIF",NA,82,"Opegrapha vermicellifera"
