"key","datasetKey","decimalLongitude","decimalLatitude","stateProvince","year","month","day","country","catalogNumber","recordedBy","institutionCode","locality","collectionCode","DB","BBarcode"
1676073347,"828a3d8c-f762-11e1-a439-00145eb45e9a",6.94225,47.957867,NA,2016,"8",16,"France","49084-771",NA,"FR","am Vorderblockloch bei Wildenstein","Herbarium Senckenbergianum (FR) - Fungi","GBIF",NA
NA,NA,9.005089,53.42196,NA,2008,"4-Apr",NA,"GERMANY","103362","H. Sipman","BERLIN_DB","DEUTSCHLAND, Niedersachsen: Landkr. Landkreis Rotenburg (Wümme). Franzhorn forest N of Brillit, Naturwald area. MTB 2520/3B1. Elev. 20-40 m",NA,"BERLIN_DB",NA
152942530,"89579e3e-f762-11e1-a439-00145eb45e9a",13.745359,46.299628,"Gorenjska",2003,"1",29,"Slovenia","F955241","Mrak T.","ULBF-AGR","Ukanc","FloVegSI-FLO","GBIF",NA
152942043,"89579e3e-f762-11e1-a439-00145eb45e9a",14.411995,45.599739,"Notranjska",1998,"10",23,"Slovenia","F1019834","Pruegger J., Surina B.","ULBF-AGR","Snežnik","FloVegSI-FLO","GBIF",NA
152942044,"89579e3e-f762-11e1-a439-00145eb45e9a",14.411987,45.699727,"Notranjska",1998,"10",24,"Slovenia","F1019835","Pruegger J., Surina B.","ULBF-AGR","Javorniki","FloVegSI-FLO","GBIF",NA
152942093,"89579e3e-f762-11e1-a439-00145eb45e9a",14.411995,45.599739,"Notranjska",1998,"10",23,"Slovenia","F1037841","Pruegger J., Surina B.","ULBF-AGR","Snežnik","FloVegSI-FLO","GBIF",NA
152942440,"89579e3e-f762-11e1-a439-00145eb45e9a",13.745368,46.19964,NA,1997,"6",5,"Slovenia","F779656","Primožič K.","ULBF-AGR",NA,"FloVegSI-FLO","GBIF",NA
152942037,"89579e3e-f762-11e1-a439-00145eb45e9a",14.411987,45.699727,"Notranjska",1997,"8",9,"Slovenia","F1019828","Pruegger J.","ULBF-AGR","Mašun","FloVegSI-FLO","GBIF",NA
152942038,"89579e3e-f762-11e1-a439-00145eb45e9a",14.411987,45.699727,"Notranjska",1997,"8",10,"Slovenia","F1019829","Pruegger J.","ULBF-AGR","Mašun","FloVegSI-FLO","GBIF",NA
152942041,"89579e3e-f762-11e1-a439-00145eb45e9a",14.411987,45.699727,"Notranjska",1997,"8",14,"Slovenia","F1019832","Pruegger J.","ULBF-AGR","Snežnik","FloVegSI-FLO","GBIF",NA
152942042,"89579e3e-f762-11e1-a439-00145eb45e9a",14.411978,45.799715,"Notranjska",1997,"10",5,"Slovenia","F1019833","Pruegger J., Suppan U., Mayrhofer H., Batič F.","ULBF-AGR","Cerkniško jezero","FloVegSI-FLO","GBIF",NA
152942096,"89579e3e-f762-11e1-a439-00145eb45e9a",14.411978,45.799715,"Notranjska",1997,"10",5,"Slovenia","F1037851","Pruegger J., Suppan U., Mayrhofer H., Batič F.","ULBF-AGR","Cerkniško jezero","FloVegSI-FLO","GBIF",NA
NA,NA,13.021707,47.690498,NA,1989,"17. sept.",NA,"GERMANY","38741","H. Sipman","BERLIN_DB","GERMANY, BAYERN. Berchtesgaden, Marktschellenberg. Alt. 950 m. Along trail to Salzburger Hochthron, on Hochbartkogel. E-facing slope with remnants of old Fagus/Acer-forest, Picea and Abies. On Acer.",NA,"BERLIN_DB",NA
2237904281,"84d26682-f762-11e1-a439-00145eb45e9a",11.73333,54.93333,NA,1980,"9",3,"Denmark","DMS-1038537","Mogens Skytte Christiansen",NA,"Resle Skov",NA,"GBIF",NA
2237904398,"84d26682-f762-11e1-a439-00145eb45e9a",11.73333,54.93333,NA,1980,"9",3,"Denmark","DMS-1038563","Mogens Skytte Christiansen",NA,"Resle Skov",NA,"GBIF",NA
2237866585,"84d26682-f762-11e1-a439-00145eb45e9a",11.11026,54.74513,NA,1977,"7",24,"Denmark","DMS-1004682","Mogens Skytte Christiansen",NA,"Lindeskov (Rudbjerggård Østerskov)",NA,"GBIF",NA
2237876690,"84d26682-f762-11e1-a439-00145eb45e9a",11.35874,54.78336,NA,1977,"7",24,"Denmark","DMS-1014261","Mogens Skytte Christiansen",NA,"Kristianssæde Skov",NA,"GBIF",NA
152942215,"89579e3e-f762-11e1-a439-00145eb45e9a",15.078565,45.699754,NA,1976,"11",15,"Slovenia","F775613","Batič F.","ULBF-AGR",NA,"FloVegSI-FLO","GBIF",NA
1212212976,"85739778-f762-11e1-a439-00145eb45e9a",6.9,47.9833,NA,1975,"6",26,"France","112715","H. Sipman","B","FRANCE, Vosges: La Bresse, near Lac des Corbeaux. Elev. c. 800 m.","Lichen Herbarium Berlin","GBIF",NA
152942227,"89579e3e-f762-11e1-a439-00145eb45e9a",15.078556,45.799742,NA,1975,"9",19,"Slovenia","F775912","Batič F.","ULBF-AGR",NA,"FloVegSI-FLO","GBIF",NA
152942228,"89579e3e-f762-11e1-a439-00145eb45e9a",15.078556,45.799742,NA,1975,"9",19,"Slovenia","F775913","Batič F.","ULBF-AGR",NA,"FloVegSI-FLO","GBIF",NA
2237909249,"84d26682-f762-11e1-a439-00145eb45e9a",9.750667,54.950635,NA,1972,"2",12,"Denmark","DMS-1043443","Svanhildur Svane",NA,"Sandbjerg Gods",NA,"GBIF",NA
788850745,"aab0cf80-0c64-11dd-84d1-b8a03c50a862",12.483611,54.984167,"Møn",1946,"7",12,"Denmark","1633208","Ove Almborn","LD","Magleby","General","GBIF",NA
788850822,"aab0cf80-0c64-11dd-84d1-b8a03c50a862",11.355278,54.756667,"Lolland",1946,"7",17,"Denmark","1633336","Ove Almborn","LD","Christianssæde","General","GBIF",NA
788855236,"aab0cf80-0c64-11dd-84d1-b8a03c50a862",9.495783,54.867183,"Jylland",1946,"7",20,"Denmark","1640184","Ove Almborn","LD","Hønsnap Skov","General","GBIF",NA
1086403127,"fe35d6a0-0c6e-11dd-84d2-b8a03c50a862",14,55,"Skåne",1945,"10",15,"Sweden","F131589","Ove Almborn","S","Skåne Fågeltofta: Kronovall","S-Fungi","GBIF",NA
1086403073,"fe35d6a0-0c6e-11dd-84d2-b8a03c50a862",14,55,"Skåne",1944,"6",28,"Sweden","F131586","Ove Almborn","S","Skåne Ö. Sönnarslöv: Maltesholm","S-Fungi","GBIF",NA
2237905180,"84d26682-f762-11e1-a439-00145eb45e9a",11.81666,54.78333,NA,1943,"5",27,"Denmark","DMS-1039611","Mogens Skytte Christiansen",NA,"Fuglsang Storskov",NA,"GBIF",NA
1086403093,"fe35d6a0-0c6e-11dd-84d2-b8a03c50a862",14,55,"Skåne",1943,"6",10,"Sweden","F131591","Ove Almborn","S","Skåne Brösarp: Lökaröds boställe","S-Fungi","GBIF",NA
788853441,"aab0cf80-0c64-11dd-84d1-b8a03c50a862",9.594444,54.921944,"Jylland",1939,"8",15,"Denmark","1637496","Ove Almborn","LD","Gråsten","General","GBIF",NA
788854802,"aab0cf80-0c64-11dd-84d1-b8a03c50a862",12.518333,54.999167,"Møn",1939,"8",6,"Denmark","1639544","Ove Almborn","LD","Liselund","General","GBIF",NA
NA,NA,10.755049,54.02762,NA,1935,"9.6.1935",NA,"Deutschland",NA,"Erichsen","BERLIN_HTL","Scharbeutz",NA,"BERLIN_HTL",NA
442146148,"8589cc8c-f762-11e1-a439-00145eb45e9a",7.928333,47.71389,NA,1922,"5",25,"Germany","B 60 0038300 / 149685 / 91509","Lettau, G.","B","Schwarzwald: Wald am ""Rohrenkopf"" bei Gersbach (Wiesental), 1100 m.","Blettaucoll","GBIF",NA
442146151,"8589cc8c-f762-11e1-a439-00145eb45e9a",8.017777,48.063332,NA,1921,"8",17,"Germany","B 60 0038303 / 149691 / 91512","Lettau, G.","B","Schwarzwald: Thomashütte am Kandel, 1070 m.","Blettaucoll","GBIF",NA
442146147,"8589cc8c-f762-11e1-a439-00145eb45e9a",10.970834,50.521389,NA,1915,"8",10,"Germany","B 60 0038299b / 150709 / 91920","Lettau, G.","B","Thüringer Wald: 4) Masserberg - Goldisthal.","Blettaucoll","GBIF",NA
442146152,"8589cc8c-f762-11e1-a439-00145eb45e9a",7.928333,47.71389,NA,1914,"4",19,"Germany","B 60 0038303a / 150711 / 91921","Lettau, G.","B","Schwarzwald: Rohrenkopf bei Gersbach (Wiesental)","Blettaucoll","GBIF",NA
442146149,"8589cc8c-f762-11e1-a439-00145eb45e9a",7.838056,47.823334,NA,1911,"5",28,"Germany","B 60 0038301 / 149687 / 91510","Lettau, G.","B","[Schwarzwald] Baden: Belchen, Südabhang","Blettaucoll","GBIF",NA
442146181,"8589cc8c-f762-11e1-a439-00145eb45e9a",7.675,47.660557,NA,1911,"9",17,"Germany","B 60 0038887a / 152359 / 92579","Lettau, G.","B","Baden: ""R"" Röttler Wald (Lörrach), unweit Rechberger Hof","Blettaucoll","GBIF",NA
442146145,"8589cc8c-f762-11e1-a439-00145eb45e9a",11.004723,50.519722,NA,1908,"5",27,"Germany","B 60 0038299 / 149682 / 91508","Lettau, G.","B","Thüringer Wald: 1) Oberhalb Goldisthal (Spenglershütte), 650-700 m.","Blettaucoll","GBIF",NA
442146146,"8589cc8c-f762-11e1-a439-00145eb45e9a",10.792222,50.679722,NA,1908,"6",7,"Germany","B 60 0038299a / 150707 / 91919","Lettau, G.","B","Thüringer Wald: 2) Oberhalb Bahnhof Gehlberg, 650 m.","Blettaucoll","GBIF",NA
442146144,"8589cc8c-f762-11e1-a439-00145eb45e9a",8.753612,49.443333,NA,1904,"3",14,"Germany","B 60 0038298 / 149680 / 91507","Lettau, G.","B","Baden: Oberhalb Peterstal bei Heidelberg, 350 m.","Blettaucoll","GBIF",NA
442146150,"8589cc8c-f762-11e1-a439-00145eb45e9a",7.850278,47.996113,NA,1902,"8",5,"Germany","B 60 0038302 / 149689 / 91511","Lettau, G.","B","[Schwarzwald] Baden: Zastler bei Freiburg im Breisgau, 800 m.","Blettaucoll","GBIF",NA
NA,NA,8.559562,51.551091,NA,1863,"4.1863",NA,"Deutschland",NA,"Lahm","BERLIN_HTL","Büren",NA,"BERLIN_HTL",NA
NA,NA,7.745211,51.910741,NA,1863,"1863",NA,"Deutschland",NA,"Nitschke","BERLIN_HTL","Wolbecker Tiergarten",NA,"BERLIN_HTL",NA
NA,NA,7,51.5,NA,1859,"1859",NA,"Deutschland",NA,"C. Beckhaus","BERLIN_HTL","",NA,"BERLIN_HTL",NA
